     2.11           OBSERVATION DATA    G:GPS               RINEX VERSION / TYPE
HBC                 HITARGET            2024/12/3           PGM / RUN BY / DATE 
BLANK OR G=GPS, R=GLONASS, C=BDS, E=GAL, J=QZSS, M=MIXED    COMMENT             
------------------------------------------------------------COMMENT             
*** Antenna height is from mark to Refer Point .            COMMENT             
------------------------------------------------------------COMMENT             
P080                                                        MARKER NAME         
                                                            MARKER NUMBER       
whoever             HITARGET                                OBSERVER / AGENCY   
16270721            A40                                     REC # / TYPE / VERS 
                    HITA40                                  ANT # / TYPE        
  -933365.7781  5591066.3081  2919581.5067                  APPROX POSITION XYZ 
        1.9998        0.0000        0.0000                  ANTENNA: DELTA H/E/N
    12    C1    L1    D1    S1    P2    L2    D2    S2    C5# / TYPES OF OBSERV
          L5    D5    S5                                    # / TYPES OF OBSERV 
     5.000                                                  INTERVAL            
  2024    12     3     2    23   50.0000000     GPS         TIME OF FIRST OBS   
  2024    12     3     5    24   45.0000000     GPS         TIME OF LAST OBS    
     0                                                      RCV CLOCK OFFS APPL 
    18                                                      LEAP SECONDS        
                                                            END OF HEADER       
 24 12 03 02 23 50.0000000  0  7G10G21G23G25G28G31G32
  20496998.016 8 107712450.672 8      -662.516          51.000    20497001.109 8
  83931794.102 8      -516.215          48.000    20496997.797 8  80434621.480 8
      -494.727          51.000  
  24378183.078 6 128108214.539 6       -17.691          41.000    24378186.469 5
  99824595.242 5       -13.730          35.000                                  
                                
  22739589.969 7 119497348.227 7     -3039.152          44.000    22739596.641 6
  93114844.242 6     -2368.176          40.000                                  
                                
  21635330.086 7 113694426.855 7        63.328          45.000    21635335.531 7
  88593090.746 7        49.344          43.000    21635334.508 7  84901698.957 7
        47.254          47.000  
  20762565.188 7 109108016.020 7       494.523          47.000    20762566.523 7
  85019237.898 7       385.363          45.000                                  
                                
  21961615.078 7 115409067.148 7      2426.168          45.000    21961617.227 7
  89929150.098 7      1890.496          45.000                                  
                                
  21599515.563 8 113506217.945 8       194.969          49.000    21599518.266 7
  88446412.469 7       151.906          46.000    21599515.117 8  84761135.379 8
       145.539          48.000  
 24 12 03 02 23 55.0000000  0  7G10G21G23G25G28G31G32
  20497629.516 8 107715769.176 8      -665.098          51.000    20497632.570 7
  83934379.934 7      -518.293          47.000    20497629.289 8  80437099.566 8
      -496.637          51.000  
  24378200.398 6 128108305.766 6       -19.238          41.000    24378203.859 5
  99824666.348 5       -14.938          35.000                                  
                                
  22742482.281 7 119512547.461 7     -3040.695          44.000    22742488.969 6
  93126687.734 6     -2369.375          40.000                                  
                                
  21635271.188 7 113694117.371 7        60.391          44.000    21635276.617 7
  88592849.582 7        47.047          44.000    21635275.617 7  84901467.836 7
        45.098          47.000  
  20762095.555 7 109105548.059 7       492.496          47.000    20762096.883 7
  85017314.809 7       383.754          45.000                                  
                                
  21959307.445 7 115396940.488 7      2424.469          45.000    21959309.609 7
  89919700.742 7      1889.184          45.000                                  
                                
  21599330.055 8 113505243.191 8       194.820          49.000    21599332.852 7
  88445652.914 7       151.777          46.000    21599329.641 8  84760407.461 8
       145.496          48.000  
 24 12 03 02 24  0.0000000  0  7G10G21G23G25G28G31G32
  20498263.375 8 107719100.172 8      -668.293          51.000    20498266.453 8
  83936975.504 8      -520.738          48.000    20498263.164 8  80439586.984 8
      -499.059          51.000  
  24378219.383 6 128108405.617 6       -21.781          41.000    24378222.875 5
  99824744.109 5       -16.855          35.000                                  
                                
  22745375.813 7 119527752.969 7     -3042.477          44.000    22745382.484 6
  93138536.141 6     -2370.770          40.000                                  
                                
  21635215.016 7 113693822.230 7        56.813          44.000    21635220.461 7
  88592619.605 7        44.211          44.000    21635219.461 7  84901247.441 7
        42.453          47.000  
  20761627.750 7 109103089.719 7       489.863          47.000    20761629.070 7
  85015399.219 7       381.727          45.000                                  
                                
  21957001.352 7 115384821.988 7      2422.086          45.000    21957003.570 7
  89910257.758 7      1887.336          45.000                                  
                                
  21599144.492 8 113504268.160 8       194.188          49.000    21599147.344 7
  88444893.145 7       151.340          46.000    21599144.102 8  84759679.352 8
       144.969          48.000  
 24 12 03 02 24  5.0000000  0  7G10G21G23G25G28G31G32
  20498899.938 8 107722445.262 8      -670.742          51.000    20498902.984 8
  83939582.051 8      -522.648          48.000    20498899.719 8  80442084.918 8
      -500.844          51.000  
  24378240.344 6 128108515.609 6       -23.254          41.000    24378243.836 5
  99824829.816 5       -18.102          35.000                                  
                                
  22748270.859 7 119542966.449 7     -3043.773          44.000    22748277.523 6
  93150390.727 6     -2371.773          40.000                                  
                                
  21635161.875 7 113693543.066 7        53.941          44.000    21635167.352 7
  88592402.059 7        42.137          44.000    21635166.344 7  84901038.965 7
        40.336          47.000  
  20761162.094 7 109100642.621 7       488.035          47.000    20761163.391 7
  85013492.375 7       380.301          45.000    20761165.211 8  81471271.44518
       364.484          51.000  
  21954697.125 7 115372713.250 7      2420.539          45.000    21954699.430 7
  89900822.387 7      1886.109          45.000                                  
                                
  21598959.211 8 113503294.473 8       194.379          49.000    21598962.055 7
  88444134.410 7       151.516          46.000    21598958.828 8  84758952.230 8
       145.180          48.000  
 24 12 03 02 24 10.0000000  0  7G10G21G23G25G28G31G32
  20499539.727 8 107725807.402 8      -672.957          51.000    20499542.789 7
  83942201.883 7      -524.352          47.000    20499539.516 8  80444595.594 8
      -502.566          51.000  
  24378263.781 6 128108638.727 6       -24.617          41.000    24378267.273 5
  99824925.707 5       -19.188          35.000                                  
                                
  22751167.984 7 119558190.766 7     -3044.766          44.000    22751174.625 6
  93162253.766 6     -2372.551          40.000                                  
                                
  21635112.344 7 113693282.785 7        51.398          44.000    21635117.836 7
  88592199.254 7        40.000          44.000    21635116.813 7  84900844.613 7
        38.277          47.000  
  20760699.125 7 109098209.707 7       486.281          47.000    20760700.414 7
  85011596.586 7       378.938          45.000    20760702.227 8  81469454.652 8
       363.172          51.000  
  21952395.289 7 115360617.195 7      2419.188          45.000    21952397.617 7
  89891396.887 7      1885.020          45.000                                  
                                
  21598774.727 8 113502325.066 8       194.707          49.000    21598777.586 7
  88443379.027 7       151.727          46.000    21598774.359 8  84758228.328 8
       145.375          48.000  
 24 12 03 02 24 15.0000000  0  7G10G21G23G25G28G31G32
  20500181.969 8 107729182.344 8      -676.836          51.000    20500185.016 7
  83944831.691 7      -527.391          47.000    20500181.750 8  80447115.820 8
      -505.398          51.000  
  24378288.914 6 128108770.707 6       -27.754          41.000    24378292.398 5
  99825028.547 5       -21.648          35.000                                  
                                
  22754066.359 7 119573421.688 7     -3047.547          44.000    22754073.000 6
  93174121.961 6     -2374.711          40.000                                  
                                
  21635065.609 7 113693037.195 7        47.160          44.000    21635071.117 7
  88592007.879 7        36.695          44.000    21635070.070 7  84900661.211 7
        35.137          47.000  
  20760238.039 7 109095786.703 7       483.023          47.000    20760239.328 7
  85009708.531 7       376.418          45.000    20760241.172 8  81467645.266 8
       360.703          51.000  
  21950095.086 7 115348529.637 7      2416.137          45.000    21950097.406 7
  89881978.004 7      1882.684          45.000                                  
                                
  21598590.258 8 113501355.711 8       193.340          49.000    21598593.133 7
  88442623.688 7       150.594          46.000    21598589.906 8  84757504.453 8
       144.375          48.000  
 24 12 03 02 24 20.0000000  0  7G10G21G23G25G28G31G32
  20500827.172 8 107732572.914 8      -678.855          50.000    20500830.219 7
  83947473.684 7      -528.984          47.000    20500826.969 8  80449647.723 8
      -506.930          51.000  
  24378316.289 6 128108914.406 6       -29.238          40.000    24378319.750 5
  99825140.484 5       -22.758          35.000                                  
                                
  22756966.508 7 119588662.012 7     -3048.211          43.000    22756973.164 6
  93185997.504 6     -2375.234          40.000                                  
                                
  21635022.195 7 113692809.086 7        44.711          44.000    21635027.703 7
  88591830.133 7        34.781          44.000    21635026.656 7  84900490.863 7
        33.344          47.000  
  20759779.375 7 109093376.445 7       481.594          46.000    20759780.672 7
  85007830.422 7       375.250          45.000    20759782.531 8  81465845.395 8
       359.605          51.000  
  21947797.031 7 115336453.379 7      2414.902          45.000    21947799.367 7
  89872567.930 7      1881.746          45.000                                  
                                
  21598406.336 8 113500389.227 8       193.852          49.000    21598409.203 7
  88441870.570 7       151.023          46.000    21598406.000 8  84756782.719 8
       144.723          48.000  
 24 12 03 02 24 25.0000000  0  7G10G21G23G25G28G31G32
  20501474.789 8 107735976.125 8      -682.480          50.000    20501477.828 8
  83950125.504 8      -531.688          48.000    20501474.586 8  80452189.066 8
      -509.648          51.000  
  24378345.313 6 128109066.762 6       -31.934          40.000    24378348.750 5
  99825259.168 5       -24.809          35.000                                  
                                
  22759867.875 7 119603908.754 7     -3050.715          43.000    22759874.531 6
  93197878.004 6     -2377.184          40.000                                  
                                
  21634981.547 7 113692595.477 7        40.586          44.000    21634987.063 7
  88591663.660 7        31.738          44.000    21634985.992 7  84900331.336 7
        30.426          47.000  
  20759322.555 7 109090975.922 7       478.582          46.000    20759323.867 7
  85005959.875 7       372.930          45.000    20759325.742 8  81464052.797 8
       357.348          51.000  
  21945500.555 7 115324385.434 7      2412.230          45.000    21945502.891 7
  89863164.332 7      1879.719          45.000                                  
                                
  21598222.391 8 113499422.609 8       192.746          49.000    21598225.242 7
  88441117.352 7       150.250          46.000    21598222.063 8  84756060.887 8
       143.945          48.000  
 24 12 03 02 24 30.0000000  0  7G10G21G23G25G28G31G32
  20502125.813 8 107739397.242 8      -684.867          50.000    20502128.852 8
  83952791.297 8      -533.656          48.000    20502125.609 8  80454743.781 8
      -511.453          51.000  
  24378376.992 6 128109233.074 6       -33.480          40.000    24378380.391 5
  99825388.754 5       -26.109          35.000                                  
                                
  22762771.461 7 119619167.156 7     -3051.766          43.000    22762778.133 6
  93209767.617 6     -2378.004          40.000                                  
                                
  21634944.664 7 113692401.648 7        37.887          44.000    21634950.188 7
  88591512.633 7        29.535          44.000    21634949.102 7  84900186.602 7
        28.281          47.000  
  20758868.602 7 109088590.434 7       476.676          46.000    20758869.922 7
  85004101.047 7       371.430          45.000    20758871.805 8  81462271.422 8
       355.965          51.000  
  21943206.672 7 115312331.098 7      2410.582          45.000    21943209.031 7
  89853771.348 7      1878.395          45.000                                  
                                
  21598039.430 8 113498461.141 8       192.891          49.000    21598042.266 7
  88440368.148 7       150.324          46.000    21598039.109 8  84755342.898 8
       144.051          48.000  
 24 12 03 02 24 35.0000000  0  7G10G21G23G25G28G31G32
  20502779.141 8 107742830.465 8      -688.539          50.000    20502782.172 8
  83955466.531 8      -536.512          48.000    20502778.938 8  80457307.535 8
      -514.156          51.000  
  24378410.211 6 128109407.559 6       -36.438          40.000    24378413.586 5
  99825524.727 5       -28.512          35.000                                  
                                
  22765676.172 7 119634431.441 7     -3054.125          44.000    22765682.852 6
  93221661.824 6     -2379.836          40.000                                  
                                
  21634910.438 7 113692221.781 7        33.922          44.000    21634915.945 7
  88591372.488 7        26.402          44.000    21634914.867 7  84900052.293 7
        25.281          47.000  
  20758416.391 7 109086214.133 7       473.625          46.000    20758417.734 7
  85002249.398 7       369.063          45.000    20758419.617 8  81460496.914 8
       353.684          51.000  
  21940914.273 7 115300284.504 7      2407.828          45.000    21940916.648 7
  89844384.391 7      1876.293          45.000                                  
                                
  21597856.344 8 113497499.023 8       191.762          49.000    21597859.164 7
  88439618.445 7       149.469          46.000    21597856.031 8  84754624.430 8
       143.242          48.000  
 24 12 03 02 24 40.0000000  0  7G10G21G23G25G28G31G32
  20503435.781 8 107746281.094 8      -692.137          51.000    20503438.789 8
  83958155.305 8      -539.289          48.000    20503435.578 8  80459884.277 8
      -516.805          51.000  
  24378446.000 6 128109595.477 6       -39.082          41.000    24378449.344 5
  99825671.113 5       -30.496          35.000                                  
                                
  22768583.008 7 119649706.855 7     -3056.516          44.000    22768589.688 6
  93233564.699 6     -2381.703          40.000                                  
                                
  21634879.883 7 113692061.191 7        29.875          44.000    21634885.359 7
  88591247.336 7        23.301          44.000    21634884.297 7  84899932.359 7
        22.297          47.000  
  20757966.938 7 109083852.336 7       470.633          46.000    20757968.297 7
  85000409.035 7       366.707          45.000    20757970.188 8  81458733.230 8
       351.434          51.000  
  21938624.359 7 115288251.016 7      2405.051          45.000    21938626.750 7
  89835007.645 7      1874.109          45.000                                  
                                
  21597674.148 8 113496541.539 8       190.758          49.000    21597676.938 7
  88438872.348 7       148.586          46.000    21597673.828 8  84753909.418 8
       142.438          48.000  
 24 12 03 02 24 45.0000000  0  7G10G21G23G25G28G31G32
  20504095.227 8 107749746.492 8      -694.410          51.000    20504098.227 8
  83960855.609 8      -541.133          48.000    20504095.031 8  80462472.059 8
      -518.559          51.000  
  24378483.844 6 128109794.203 6       -40.613          40.000    24378487.164 5
  99825825.969 5       -31.680          35.000                                  
                                
  22771491.469 7 119664990.809 7     -3057.605          44.000    22771498.156 6
  93245474.207 6     -2382.559          40.000                                  
                                
  21634852.492 7 113691917.266 7        27.113          44.000    21634857.961 7
  88591135.199 7        21.086          44.000    21634856.906 7  84899824.883 7
        20.230          47.000  
  20757519.750 7 109081502.398 7       468.848          46.000    20757521.125 7
  84998577.918 7       365.324          45.000    20757523.016 8  81456978.402 8
       350.168          51.000  
  21936336.445 7 115276228.000 7      2403.613          45.000    21936338.852 7
  89825639.066 7      1872.945          45.000                                  
                                
  21597492.328 8 113495586.086 8       190.906          49.000    21597495.109 7
  88438127.836 7       148.762          46.000    21597492.016 8  84753195.930 8
       142.516          48.000  
 24 12 03 02 24 50.0000000  0  7G10G21G23G25G28G31G32
  20504757.742 8 107753228.008 8      -698.020          50.000    20504760.727 8
  83963568.457 8      -543.922          48.000    20504757.547 8  80465071.875 8
      -521.234          51.000  
  24378523.992 6 128110005.063 6       -43.512          41.000    24378527.289 5
  99825990.266 5       -33.941          35.000                                  
                                
  22774401.797 7 119680284.570 7     -3059.840          44.000    22774408.492 6
  93257391.383 6     -2384.297          40.000                                  
                                
  21634828.508 7 113691791.293 7        23.336          44.000    21634833.953 7
  88591037.027 7        18.168          44.000    21634832.930 7  84899730.805 7
        17.426          47.000  
  20757075.063 7 109079165.648 7       465.926          46.000    20757076.469 7
  84996757.070 7       363.039          45.000    20757078.352 8  81455233.430 8
       347.918          51.000  
  21934050.781 7 115264216.770 7      2400.969          45.000    21934053.188 7
  89816279.660 7      1870.906          45.000                                  
                                
  21597311.148 8 113494633.965 8       189.941          49.000    21597313.906 7
  88437385.902 7       148.105          46.000    21597310.836 8  84752484.914 8
       141.840          48.000  
 24 12 03 02 24 55.0000000  0  7G10G21G23G25G28G31G32
  20505421.836 8 107756717.832 8      -699.238          50.000    20505424.805 8
  83966287.785 8      -544.871          48.000    20505421.648 8  80467677.891 8
      -522.129          51.000  
  24378564.961 6 128110220.238 6       -43.867          41.000    24378568.234 5
  99826157.879 5       -34.246          35.000                                  
                                
  22777312.523 7 119695580.375 7     -3059.941          44.000    22777319.211 6
  93269310.109 6     -2384.375          40.000                                  
                                
  21634806.453 7 113691675.508 7        21.656          44.000    21634811.898 7
  88590946.813 7        16.855          44.000    21634810.898 7  84899644.352 7
        16.156          47.000  
  20756631.398 7 109076834.273 7       465.246          46.000    20756632.828 7
  84994940.402 7       362.555          45.000    20756634.711 8  81453492.465 8
       347.430          51.000  
  21931765.875 7 115252209.547 7      2400.574          45.000    21931768.305 7
  89806923.391 7      1870.566          45.000                                  
                                
  21597129.117 8 113493677.398 8       191.254          49.000    21597131.867 7
  88436640.527 7       149.074          46.000    21597128.813 8  84751770.594 8
       142.801          48.000  
 24 12 03 02 25  0.0000000  0  7G10G21G23G25G28G31G32
  20506089.078 8 107760223.902 8      -703.184          50.000    20506091.961 8
  83969019.777 8      -547.918          48.000    20506088.969 8  80470296.051 8
      -525.109          51.000  
  24378608.516 6 128110447.703 6       -47.211          40.000    24378611.594 5
  99826335.145 5       -36.789          35.000                                  
                                
  22780225.344 7 119710886.121 7     -3062.555          44.000    22780232.203 6
  93281236.637 6     -2386.414          40.000                                  
                                
  21634787.805 7 113691577.855 7        17.379          44.000    21634793.211 7
  88590870.727 7        13.492          44.000    21634792.266 7  84899571.434 7
        12.891          47.000  
  20756190.148 7 109074516.223 7       461.922          46.000    20756191.750 7
  84993134.152 7       359.934          45.000    20756193.609 8  81451761.457 8
       344.938          51.000  
  21929483.094 7 115240214.281 7      2397.473          45.000    21929485.648 7
  89797576.438 7      1868.145          45.000                                  
                                
  21596947.734 8 113492724.324 8       189.879          49.000    21596950.391 7
  88435897.875 7       147.949          46.000    21596947.523 8  84751058.879 8
       141.773          48.000  
 24 12 03 02 25  5.0000000  0  7G10G21G23G25G28G31G32
  20506759.688 8 107763747.969 8      -706.594          50.000    20506762.547 8
  83971765.785 8      -550.605          48.000    20506759.578 8  80472927.637 8
      -527.629          51.000  
  24378654.492 6 128110689.180 6       -49.648          40.000    24378657.555 5
  99826523.313 5       -38.723          35.000                                  
                                
  22783140.203 7 119726203.582 7     -3064.652          44.000    22783147.055 6
  93293172.242 6     -2388.039          40.000                                  
                                
  21634772.992 7 113691500.074 7        13.738          44.000    21634778.406 7
  88590810.129 7        10.520          44.000    21634777.469 7  84899513.344 7
        10.195          47.000  
  20755751.883 7 109072213.238 7       459.141          46.000    20755753.523 7
  84991339.602 7       357.770          45.000    20755755.367 8  81450041.684 8
       342.910          51.000  
  21927203.086 7 115228232.707 7      2394.965          45.000    21927205.602 7
  89788240.141 7      1866.230          45.000                                  
                                
  21596767.375 8 113491776.492 8       189.074          49.000    21596770.039 7
  88435159.293 7       147.352          46.000    21596767.164 8  84750351.070 8
       141.219          48.000  
 24 12 03 02 25 10.0000000  0  7G10G21G23G25G28G31G32
  20507433.680 8 107767289.805 8      -708.793          50.000    20507436.531 8
  83974525.641 8      -552.281          48.000    20507433.570 8  80475572.492 8
      -529.254          51.000  
  24378703.086 6 128110944.426 6       -50.848          40.000    24378706.109 5
  99826722.148 5       -39.664          35.000                                  
                                
  22786057.219 7 119741532.457 7     -3065.516          44.000    22786064.094 6
  93305116.766 6     -2388.723          40.000                                  
                                
  21634761.906 7 113691441.918 7        11.156          44.000    21634767.344 7
  88590764.809 7         8.523          44.000    21634766.414 7  84899469.914 7
         8.309          47.000  
  20755316.438 7 109069925.070 7       457.574          46.000    20755318.109 7
  84989556.602 7       356.559          45.000    20755319.953 8  81448332.984 8
       341.738          51.000  
  21924925.641 7 115216264.598 7      2393.766          45.000    21924928.125 7
  89778914.348 7      1865.219          45.000                                  
                                
  21596587.961 8 113490833.668 8       189.516          49.000    21596590.617 7
  88434424.613 7       147.703          46.000    21596587.750 8  84749647.008 8
       141.516          48.000  
 24 12 03 02 25 15.0000000  0  7G10G21G23G25G28G31G32
  20508109.836 8 107770842.996 8      -712.398          50.000    20508112.688 8
  83977294.344 8      -555.129          48.000    20508109.727 8  80478225.832 8
      -531.969          51.000  
  24378753.063 6 128111207.020 6       -53.828          40.000    24378756.063 5
  99826926.754 5       -42.000          35.000                                  
                                
  22788975.195 7 119756866.387 7     -3067.941          43.000    22788982.086 6
  93317065.219 6     -2390.609          40.000                                  
                                
  21634753.344 7 113691396.988 7         7.211          44.000    21634758.789 7
  88590729.789 7         5.535          44.000    21634757.875 7  84899436.363 7
         5.348          47.000  
  20754882.594 7 109067645.309 7       454.512          46.000    20754884.305 7
  84987780.156 7       354.184          45.000    20754886.133 8  81446630.566 8
       339.391          51.000  
  21922649.539 7 115204303.570 7      2390.867          45.000    21922652.008 7
  89769594.047 7      1863.043          45.000                                  
                                
  21596408.273 8 113489889.445 8       188.383          49.000    21596410.922 7
  88433688.848 7       146.816          46.000    21596408.078 8  84748941.898 8
       140.684          48.000  
 24 12 03 02 25 20.0000000  0  7G10G21G23G25G28G31G32
  20508789.047 8 107774412.246 8      -715.551          50.000    20508791.891 8
  83980075.574 8      -557.570          48.000    20508788.930 8  80480891.168 8
      -534.301          51.000  
  24378805.344 6 128111481.703 6       -56.270          40.000    24378808.336 5
  99827140.773 5       -43.785          35.000                                  
                                
  22791895.023 7 119772210.035 7     -3069.855          43.000    22791901.938 6
  93329021.246 6     -2392.098          40.000                                  
                                
  21634748.203 7 113691370.012 7         3.602          44.000    21634753.664 7
  88590708.777 7         2.734          44.000    21634752.750 7  84899416.230 7
         2.598          47.000  
  20754451.242 7 109065378.652 7       451.910          46.000    20754452.984 7
  84986013.934 7       352.137          45.000    20754454.805 8  81444937.930 8
       337.449          51.000  
  21920375.672 7 115192354.270 7      2388.508          45.000    21920378.141 7
  89760282.914 7      1861.262          45.000                                  
                                
  21596229.219 8 113488948.516 8       187.758          49.000    21596231.859 7
  88432955.656 7       146.324          46.000    21596229.039 8  84748239.258 8
       140.164          48.000  
 24 12 03 02 25 25.0000000  0  7G10G21G23G25G28G31G32
  20509471.133 8 107777996.594 8      -718.664          50.000    20509473.961 8
  83982868.559 8      -559.992          48.000    20509471.016 8  80483567.781 8
      -536.688          51.000  
  24378859.734 6 128111767.449 6       -58.531          40.000    24378862.734 5
  99827363.430 5       -45.590          35.000                                  
                                
  22794816.500 7 119787562.438 7     -3071.668          44.000    22794823.453 6
  93340984.113 6     -2393.512          40.000                                  
                                
  21634746.297 7 113691360.027 7        -0.004          44.000    21634751.789 7
  88590700.980 7         0.105          44.000    21634750.859 8  84899408.766 8
         0.039          48.000  
  20754022.219 7 109063124.145 7       449.395          46.000    20754023.984 7
  84984257.188 7       350.188          45.000    20754025.789 8  81443254.367 8
       335.625          51.000  
  21918103.867 7 115180415.797 7      2386.340          45.000    21918106.328 7
  89750980.215 7      1859.508          45.000                                  
                                
  21596050.609 8 113488009.949 8       187.176          49.000    21596053.258 7
  88432224.305 7       145.844          46.000    21596050.438 8  84747538.371 8
       139.801          48.000  
 24 12 03 02 25 30.0000000  0  7G10G21G23G25G28G31G32
  20510156.125 8 107781596.207 8      -721.047          50.000    20510158.945 7
  83985673.430 7      -561.824          47.000    20510156.008 8  80486255.785 8
      -538.465          51.000  
  24378916.250 6 128112064.426 6       -60.023          40.000    24378919.258 5
  99827594.824 5       -46.813          35.000                                  
                                
  22797739.680 7 119802923.758 7     -3072.816          43.000    22797746.664 6
  93352953.910 6     -2394.406          40.000                                  
                                
  21634747.648 7 113691367.145 7        -2.770          44.000    21634753.180 7
  88590706.531 7        -2.141          44.000    21634752.227 7  84899414.082 7
        -2.063          47.000  
  20753595.539 7 109060881.926 7       447.613          46.000    20753597.313 7
  84982509.988 7       348.781          45.000    20753599.117 8  81441579.977 8
       334.289          51.000  
  21915834.141 7 115168488.281 7      2384.758          45.000    21915836.594 7
  89741686.047 7      1858.348          45.000                                  
                                
  21595872.477 8 113487073.867 8       187.332          49.000    21595875.133 7
  88431494.879 7       146.004          46.000    21595872.320 8  84746839.348 8
       139.883          48.000  
 24 12 03 02 25 35.0000000  0  7G10G21G23G25G28G31G32
  20510843.578 8 107785208.766 8      -724.480          51.000    20510846.398 7
  83988488.402 7      -564.574          47.000    20510843.461 8  80488953.453 8
      -541.000          51.000  
  24378974.477 6 128112370.355 6       -62.723          40.000    24378977.500 5
  99827833.184 5       -48.891          35.000                                  
                                
  22800664.109 7 119818291.645 7     -3074.910          43.000    22800671.133 6
  93364928.840 6     -2396.035          40.000                                  
                                
  21634751.828 7 113691389.137 7        -6.602          44.000    21634757.391 7
  88590723.660 7        -5.105          44.000    21634756.422 7  84899430.492 7
        -4.898          47.000  
  20753170.758 7 109058649.684 7       444.785          46.000    20753172.547 7
  84980770.586 7       346.578          45.000    20753174.344 8  81439913.043 8
       332.141          51.000  
  21913566.055 7 115156569.379 7      2382.207          45.000    21913568.484 7
  89732398.605 7      1856.332          45.000                                  
                                
  21595694.383 8 113486137.988 8       186.461          49.000    21595697.055 7
  88430765.629 7       145.211          46.000    21595694.234 8  84746140.469 8
       139.234          48.000  
 24 12 03 02 25 40.0000000  0  7G10G21G23G25G28G31G32
  20511534.305 8 107788838.551 8      -727.219          51.000    20511537.125 7
  83991316.785 7      -566.676          47.000    20511534.188 8  80491663.988 8
      -543.051          51.000  
  24379035.195 6 128112689.453 6       -64.797          40.000    24379038.234 5
  99828081.813 5       -50.523          35.000                                  
                                
  22803590.602 7 119833670.371 7     -3076.430          44.000    22803597.648 6
  93376912.195 6     -2397.223          40.000                                  
                                
  21634759.641 7 113691430.191 7        -9.633          44.000    21634765.250 7
  88590755.656 7        -7.508          44.000    21634764.242 7  84899461.152 7
        -7.117          47.000  
  20752748.680 7 109056431.672 7       442.680          46.000    20752750.477 7
  84979042.266 7       344.926          45.000    20752752.273 8  81438256.738 8
       330.543          51.000  
  21911300.430 7 115144663.410 7      2380.344          45.000    21911302.836 7
  89723121.223 7      1854.855          45.000                                  
                                
  21595517.125 8 113485206.559 8       186.355          49.000    21595519.820 7
  88430039.828 7       145.180          46.000    21595516.992 8  84745444.914 8
       139.164          48.000  
 24 12 03 02 25 45.0000000  0  7G10G21G23G25G28G31G32
  20512228.023 8 107792484.012 8      -730.609          51.000    20512230.828 7
  83994157.391 7      -569.324          47.000    20512227.906 8  80494386.230 8
      -545.570          51.000  
  24379098.125 6 128113020.184 6       -67.211          40.000    24379101.180 5
  99828339.484 5       -52.355          35.000                                  
                                
  22806518.859 7 119849058.410 7     -3078.465          43.000    22806525.938 6
  93388902.809 6     -2398.809          40.000                                  
                                
  21634770.797 7 113691488.844 7       -13.527          44.000    21634776.445 7
  88590801.355 7       -10.480          44.000    21634775.414 8  84899504.949 8
       -10.000          48.000  
  20752329.023 7 109054226.375 7       439.852          46.000    20752330.828 7
  84977323.832 7       342.738          45.000    20752332.672 8  81436609.922 8
       328.488          51.000  
  21909036.977 7 115132768.867 7      2377.836          45.000    21909039.352 7
  89713852.754 7      1852.844          45.000                                  
                                
  21595340.438 8 113484278.082 8       185.488          49.000    21595343.148 7
  88429316.332 7       144.523          46.000    21595340.320 8  84744751.563 8
       138.520          48.000  
 24 12 03 02 25 50.0000000  0  7G10G21G23G25G28G31G32
  20512924.875 8 107796145.629 8      -733.941          51.000    20512927.617 7
  83997010.586 7      -571.906          47.000    20512924.789 8  80497120.543 8
      -548.121          51.000  
  24379163.461 6 128113363.078 6       -69.875          40.000    24379166.555 5
  99828606.699 5       -54.430          35.000                                  
                                
  22809449.211 7 119864456.207 7     -3080.621          43.000    22809456.703 6
  93400901.051 6     -2400.484          40.000                                  
                                
  21634785.305 7 113691565.504 7       -17.160          44.000    21634791.211 7
  88590861.094 7       -13.391          44.000    21634790.117 8  84899562.203 8
       -12.828          48.000  
  20751911.781 7 109052034.234 7       437.137          46.000    20751913.813 7
  84975615.695 7       340.598          45.000    20751915.523 8  81434972.941 8
       326.422          51.000  
  21906775.844 7 115120886.172 7      2375.371          45.000    21906778.008 7
  89704593.527 7      1850.910          45.000                                  
                                
  21595164.367 8 113483352.984 8       184.629          49.000    21595167.180 7
  88428595.473 7       143.859          46.000    21595164.367 8  84744060.738 8
       137.871          48.000  
 24 12 03 02 25 55.0000000  0  7G10G21G23G25G28G31G32
  20513623.961 8 107799819.305 8      -736.188          51.000    20513626.711 7
  83999873.176 7      -573.664          47.000    20513623.875 8  80499863.848 8
      -549.770          51.000  
  24379230.219 6 128113713.930 6       -71.301          41.000    24379233.328 5
  99828880.020 5       -55.547          35.000                                  
                                
  22812380.398 7 119879859.648 7     -3081.621          43.000    22812387.914 6
  93412903.656 6     -2401.266          40.000                                  
                                
  21634802.563 7 113691656.137 7       -19.730          44.000    21634808.500 7
  88590931.715 7       -15.398          44.000    21634807.367 8  84899629.879 8
       -14.711          48.000  
  20751496.375 7 109049851.164 7       435.465          47.000    20751498.391 7
  84973914.582 7       339.324          45.000    20751500.094 8  81433342.719 8
       325.180          51.000  
  21904516.133 7 115109011.254 7      2374.031          45.000    21904518.266 7
  89695340.340 7      1849.852          45.000                                  
                                
  21594988.188 8 113482427.188 8       185.031          49.000    21594991.023 7
  88427874.070 7       144.133          46.000    21594988.195 8  84743369.387 8
       138.203          48.000  
 24 12 03 02 26  0.0000000  0  7G10G21G23G25G28G31G32
  20514326.109 8 107803509.051 8      -739.617          51.000    20514328.859 7
  84002748.285 7      -576.332          47.000    20514326.023 8  80502619.160 8
      -552.316          51.000  
  24379299.266 6 128114076.777 6       -73.754          41.000    24379302.422 5
  99829162.773 5       -57.504          35.000                                  
                                
  22815313.414 7 119895272.742 7     -3083.695          43.000    22815320.961 6
  93424913.813 6     -2402.883          40.000                                  
                                
  21634823.227 7 113691764.723 7       -23.617          44.000    21634829.195 7
  88591016.316 7       -18.313          44.000    21634828.039 8  84899710.973 8
       -17.605          48.000  
  20751083.445 7 109047681.168 7       432.625          47.000    20751085.445 7
  84972223.672 7       337.105          45.000    20751087.164 8  81431722.266 8
       323.090          51.000  
  21902258.664 7 115097148.141 7      2371.367          45.000    21902260.742 7
  89686096.363 7      1847.805          44.000                                  
                                
  21594812.648 8 113481504.730 8       184.074          49.000    21594815.492 7
  88427155.266 7       143.406          46.000    21594812.672 8  84742680.535 8
       137.492          48.000  
 24 12 03 02 26  5.0000000  0  7G10G21G23G25G28G31G32
  20515031.469 8 107807215.660 8      -742.770          51.000    20515034.219 7
  84005636.539 7      -578.750          47.000    20515031.375 8  80505387.066 8
      -554.617          51.000  
  24379370.758 6 128114452.438 6       -76.152          41.000    24379373.945 5
  99829455.445 5       -59.352          35.000                                  
                                
  22818248.406 7 119910696.250 7     -3085.348          43.000    22818255.992 6
  93436932.070 6     -2404.172          40.000                                  
                                
  21634847.445 7 113691892.047 7       -27.145          44.000    21634853.453 7
  88591115.523 7       -21.035          44.000    21634852.273 7  84899806.043 7
       -20.199          47.000  
  20750673.156 7 109045525.020 7       430.059          47.000    20750675.141 7
  84970543.551 7       335.133          45.000    20750676.859 8  81430112.152 8
       321.180          51.000  
  21900003.586 7 115085297.617 7      2369.102          45.000    21900005.609 7
  89676862.203 7      1845.996          45.000                                  
                                
  21594637.883 8 113480586.371 8       183.504          49.000    21594640.727 7
  88426439.645 7       143.039          46.000    21594637.914 8  84741994.746 8
       137.047          48.000  
 24 12 03 02 26 10.0000000  0  7G10G21G23G25G28G31G32
  20515739.227 8 107810934.891 8      -744.441          51.000    20515741.984 7
  84008534.633 7      -580.082          47.000    20515739.141 8  80508164.398 8
      -555.898          51.000  
  24379443.883 6 128114836.680 6       -77.000          41.000    24379447.125 5
  99829754.855 5       -60.004          35.000                                  
                                
  22821184.586 7 119926125.980 7     -3085.813          43.000    22821192.203 6
  93448955.172 6     -2404.535          40.000                                  
                                
  21634874.438 7 113692033.883 7       -29.234          44.000    21634880.461 7
  88591226.047 7       -22.719          44.000    21634879.266 8  84899911.953 8
       -21.773          48.000  
  20750264.695 7 109043378.469 7       428.973          47.000    20750266.656 7
  84968870.926 7       334.285          45.000    20750268.383 8  81428509.207 8
       320.363          51.000  
  21897750.102 7 115073455.480 7      2368.270          45.000    21897752.055 7
  89667634.547 7      1845.484          45.000                                  
                                
  21594463.094 8 113479667.867 8       184.375          49.000    21594465.922 7
  88425723.926 7       143.715          46.000    21594463.141 8  84741308.836 8
       137.723          48.000  
 24 12 03 02 26 15.0000000  0  7G10G21G23G25G28G31G32
  20516449.273 8 107814666.145 8      -748.129          51.000    20516452.031 7
  84011442.082 7      -582.957          47.000    20516449.188 8  80510950.707 8
      -558.668          51.000  
  24379518.531 6 128115228.934 6       -79.930          41.000    24379521.805 5
  99830060.480 5       -62.246          35.000                                  
                                
  22824121.820 7 119941561.281 7     -3088.445          43.000    22824129.477 6
  93460982.629 6     -2406.586          40.000                                  
                                
  21634904.055 7 113692189.598 7       -33.195          44.000    21634910.109 7
  88591347.398 7       -25.898          44.000    21634908.914 8  84900028.254 8
       -24.836          48.000  
  20749857.938 7 109041240.926 7       425.852          47.000    20749859.898 7
  84967205.313 7       331.844          45.000    20749861.617 8  81426912.992 8
       318.043          51.000  
  21895498.086 7 115061621.066 7      2365.398          45.000    21895500.008 7
  89658412.953 7      1843.141          45.000                                  
                                
  21594288.164 8 113478748.641 8       183.230          49.000    21594291.000 7
  88425007.648 7       142.727          46.000    21594288.227 8  84740622.406 8
       136.805          48.000  
 24 12 03 02 26 20.0000000  0  7G10G21G23G25G28G31G32
  20517162.727 8 107818415.293 8      -751.230          51.000    20517165.477 7
  84014363.480 7      -585.352          47.000    20517162.633 8  80513750.383 8
      -561.016          51.000  
  24379595.813 6 128115635.000 6       -82.129          41.000    24379599.102 5
  99830376.867 5       -63.949          35.000                                  
                                
  22827061.234 7 119957008.016 7     -3090.039          43.000    22827068.922 6
  93473018.965 6     -2407.820          40.000                                  
                                
  21634937.461 7 113692365.145 7       -36.688          44.000    21634943.523 7
  88591484.180 7       -28.602          44.000    21634942.320 8  84900159.328 8
       -27.379          48.000  
  20749454.008 7 109039118.266 7       423.418          47.000    20749455.953 7
  84965551.270 7       329.973          45.000    20749457.688 8  81425327.887 8
       316.207          51.000  
  21893248.672 7 115049800.309 7      2363.168          45.000    21893250.547 7
  89649201.969 7      1841.453          45.000                                  
                                
  21594114.219 8 113477834.578 8       182.648          49.000    21594117.055 7
  88424295.375 7       142.340          46.000    21594114.289 8  84739939.805 8
       136.449          48.000  
 24 12 03 02 26 25.0000000  0  7G10G21G23G25G28G31G32
  20517879.516 8 107822182.016 8      -754.980          51.000    20517882.266 7
  84017298.578 7      -588.285          47.000    20517879.430 8  80516563.172 8
      -563.809          51.000  
  24379675.656 6 128116054.531 6       -85.070          41.000    24379678.969 5
  99830703.773 5       -66.270          35.000                                  
                                
  22830002.758 7 119972465.852 7     -3092.523          43.000    22830010.484 6
  93485063.984 6     -2409.762          40.000                                  
                                
  21634974.563 7 113692560.160 7       -40.902          44.000    21634980.641 7
  88591636.133 7       -31.785          44.000    21634979.438 7  84900304.953 7
       -30.488          47.000  
  20749052.852 7 109037010.156 7       420.297          46.000    20749054.797 7
  84963908.594 7       327.496          45.000    20749056.523 8  81423753.645 8
       313.859          51.000  
  21891001.789 7 115037992.891 7      2360.316          45.000    21891003.648 7
  89640001.387 7      1839.223          45.000                                  
                                
  21593941.180 8 113476925.316 8       181.566          49.000    21593944.023 7
  88423586.852 7       141.496          46.000    21593941.266 8  84739260.805 8
       135.621          48.000  
 24 12 03 02 26 30.0000000  0  7G10G21G23G25G28G31G32
  20518598.445 8 107825959.938 8      -756.973          51.000    20518601.180 7
  84020242.395 7      -589.883          47.000    20518598.352 8  80519384.328 8
      -565.270          51.000  
  24379756.859 6 128116481.160 6       -86.406          41.000    24379760.180 5
  99831036.219 5       -67.336          35.000                                  
                                
  22832945.180 7 119987928.422 7     -3093.418          43.000    22832952.945 6
  93497112.695 6     -2410.465          40.000                                  
                                
  21635014.148 7 113692768.234 7       -43.301          44.000    21635020.227 7
  88591798.270 7       -33.715          44.000    21635019.039 7  84900460.340 7
       -32.352          47.000  
  20748653.234 7 109034910.191 7       418.891          46.000    20748655.180 7
  84962272.270 7       326.344          45.000    20748656.914 8  81422185.484 8
       312.809          51.000  
  21888756.227 7 115026192.402 7      2359.078          45.000    21888758.078 7
  89630806.207 7      1838.301          45.000                                  
                                
  21593767.859 8 113476014.512 8       181.949          49.000    21593770.703 7
  88422877.125 7       141.758          46.000    21593767.953 8  84738580.648 8
       135.934          48.000  
 24 12 03 02 26 35.0000000  0  7G10G21G23G25G28G31G32
  20519319.984 8 107829751.578 8      -759.930          51.000    20519322.703 7
  84023196.902 7      -592.133          47.000    20519319.891 8  80522215.734 8
      -567.461          51.000  
  24379839.883 6 128116917.359 6       -88.379          41.000    24379843.195 5
  99831376.043 5       -68.828          35.000                                  
                                
  22835888.984 7 120003398.211 7     -3094.922          43.000    22835896.766 6
  93509166.996 6     -2411.633          40.000                                  
                                
  21635056.703 7 113692991.941 7       -46.539          44.000    21635062.781 7
  88591972.594 7       -36.297          44.000    21635061.617 7  84900627.395 7
       -34.797          47.000  
  20748255.656 7 109032820.914 7       416.570          47.000    20748257.594 7
  84960644.238 7       324.613          45.000    20748259.336 8  81420625.309 8
       311.066          51.000  
  21886512.469 7 115014401.387 7      2357.055          45.000    21886514.297 7
  89621618.426 7      1836.664          45.000                                  
                                
  21593594.719 8 113475104.676 8       181.645          49.000    21593597.578 7
  88422168.148 7       141.602          46.000    21593594.820 8  84737901.219 8
       135.691          48.000  
 24 12 03 02 26 40.0000000  0  7G10G21G23G25G28G31G32
  20520044.695 8 107833559.348 8      -763.164          50.000    20520047.422 7
  84026163.988 7      -594.676          47.000    20520044.656 8  80525059.184 8
      -569.883          51.000  
  24379925.281 6 128117365.602 6       -90.902          41.000    24379928.852 5
  99831725.348 5       -70.789          35.000                                  
                                
  22838834.641 7 120018877.617 7     -3096.781          43.000    22838842.898 6
  93521228.813 6     -2413.086          40.000                                  
                                
  21635102.656 7 113693233.664 7       -50.211          44.000    21635108.922 7
  88592160.949 7       -39.211          44.000    21635107.680 7  84900807.902 7
       -37.488          47.000  
  20747860.625 7 109030744.715 7       413.906          46.000    20747862.469 7
  84959026.418 7       322.535          45.000    20747864.242 8  81419074.898 8
       309.109          51.000  
  21884270.992 7 115002622.246 7      2354.629          45.000    21884272.398 7
  89612439.875 7      1834.809          45.000                                  
                                
  21593422.172 8 113474198.219 8       180.949          49.000    21593425.172 7
  88421461.820 7       140.969          46.000    21593422.422 8  84737224.313 8
       135.152          48.000  
 24 12 03 02 26 45.0000000  0  7G10G21G23G25G28G31G32
  20520772.242 8 107837382.613 8      -766.199          50.000    20520774.953 7
  84029143.141 7      -597.090          47.000    20520772.203 8  80527914.203 8
      -572.188          51.000  
  24380012.781 6 128117825.227 6       -93.098          41.000    24380016.320 5
  99832083.461 5       -72.504          35.000                                  
                                
  22841782.008 7 120034366.035 7     -3098.621          43.000    22841790.250 6
  93533297.641 6     -2414.516          40.000                                  
                                
  21635151.953 7 113693492.793 7       -53.664          44.000    21635158.219 7
  88592362.855 7       -41.762          44.000    21635156.992 7  84901001.398 7
       -40.031          47.000  
  20747467.906 7 109028680.957 7       411.477          46.000    20747469.742 7
  84957418.281 7       320.629          45.000    20747471.523 8  81417533.773 8
       307.238          51.000  
  21882031.641 7 114990854.344 7      2352.422          45.000    21882033.023 7
  89603270.074 7      1833.148          44.000                                  
                                
  21593250.195 8 113473294.504 8       180.469          49.000    21593253.250 7
  88420757.613 7       140.645          46.000    21593250.461 8  84736549.453 8
       134.781          48.000  
 24 12 03 02 26 50.0000000  0  7G10G21G23G25G28G31G32
  20521503.172 8 107841223.695 8      -770.078          50.000    20521505.875 7
  84032136.172 7      -600.102          47.000    20521503.148 8  80530782.520 8
      -575.043          51.000  
  24380102.891 6 128118298.566 6       -96.184          41.000    24380106.406 5
  99832452.289 5       -74.938          35.000                                  
                                
  22844731.516 7 120049865.738 7     -3101.164          43.000    22844739.766 6
  93545375.277 6     -2416.492          40.000                                  
                                
  21635205.000 7 113693771.602 7       -57.832          44.000    21635211.250 7
  88592580.113 7       -45.047          43.000    21635210.047 7  84901209.605 7
       -43.176          47.000  
  20747077.984 7 109026631.941 7       408.227          46.000    20747079.828 7
  84955821.656 7       318.117          45.000    20747081.609 8  81416003.664 8
       304.863          51.000  
  21879794.875 7 114979100.004 7      2349.488          45.000    21879796.227 7
  89594110.867 7      1830.750          44.000                                  
                                
  21593079.180 8 113472395.848 8       179.152          48.000    21593082.297 7
  88420057.352 7       139.664          46.000    21593079.461 8  84735878.375 8
       133.770          48.000  
 24 12 03 02 26 55.0000000  0  7G10G21G23G25G28G31G32
  20522236.281 8 107845076.242 8      -771.859          50.000    20522238.977 7
  84035138.141 7      -601.473          47.000    20522236.266 8  80533659.406 8
      -576.383          51.000  
  24380194.398 6 128118779.293 6       -96.988          41.000    24380197.898 6
  99832826.867 6       -75.598          36.000                                  
                                
  22847681.977 7 120065370.402 7     -3101.617          43.000    22847690.219 6
  93557456.797 6     -2416.848          40.000                                  
                                
  21635260.602 7 113694063.805 7       -59.941          44.000    21635266.828 7
  88592807.809 7       -46.762          43.000    21635265.656 7  84901427.809 7
       -44.754          47.000  
  20746689.680 7 109024591.359 7       407.117          46.000    20746691.523 7
  84954231.598 7       317.219          45.000    20746693.297 8  81414479.852 8
       303.996          51.000  
  21877559.500 7 114967352.941 7      2348.512          45.000    21877560.828 7
  89584957.313 7      1830.031          44.000                                  
                                
  21592907.930 8 113471495.949 8       179.949          48.000    21592911.102 7
  88419356.133 7       140.184          46.000    21592908.234 8  84735206.367 8
       134.316          48.000  
 24 12 03 02 27  0.0000000  0  7G10G21G23G25G28G31G32
  20522971.859 8 107848941.762 8      -774.402          50.000    20522974.547 7
  84038150.219 7      -603.465          47.000    20522971.859 8  80536545.977 8
      -578.273          51.000  
  24380287.594 6 128119268.902 6       -98.867          41.000    24380291.094 6
  99833208.363 6       -77.031          36.000                                  
                                
  22850633.664 7 120080881.496 7     -3102.879          43.000    22850641.891 6
  93569543.293 6     -2417.828          40.000                                  
                                
  21635319.023 7 113694370.875 7       -62.918          44.000    21635325.227 7
  88593047.090 7       -49.063          43.000    21635324.086 7  84901657.117 7
       -46.980          47.000  
  20746303.250 7 109022560.660 7       405.160          47.000    20746305.102 7
  84952649.234 7       315.723          45.000    20746306.867 8  81412963.418 8
       302.539          51.000  
  21875325.766 7 114955614.551 7      2346.813          45.000    21875327.078 7
  89575810.531 7      1828.648          44.000                                  
                                
  21592736.711 8 113470596.246 8       179.887          49.000    21592739.922 7
  88418655.051 7       140.176          46.000    21592737.039 8  84734534.496 8
       134.348          48.000  
 24 12 03 02 27  5.0000000  0  7G10G21G23G25G28G31G32
  20523710.438 8 107852823.047 8      -777.633          50.000    20523713.117 7
  84041174.578 7      -605.898          47.000    20523710.445 8  80539444.328 8
      -580.715          51.000  
  24380382.984 6 128119770.102 6      -101.145          41.000    24380386.500 6
  99833598.887 6       -78.820          36.000                                  
                                
  22853587.094 7 120096401.797 7     -3104.777          43.000    22853595.313 6
  93581636.980 6     -2419.309          40.000    22853598.648 7  89682428.38717
     -2318.523          45.000  
  21635380.820 7 113694695.609 7       -66.617          44.000    21635386.977 7
  88593300.121 7       -51.871          43.000    21635385.883 8  84901899.605 8
       -49.652          48.000  
  20745919.242 7 109020542.648 7       402.484          47.000    20745921.086 7
  84951076.750 7       313.633          45.000    20745922.852 8  81411456.461 8
       300.578          51.000  
  21873094.227 7 114943887.688 7      2344.477          45.000    21873095.516 7
  89566672.727 7      1826.828          44.000                                  
                                
  21592566.078 8 113469699.574 8       179.152          49.000    21592569.328 7
  88417956.336 7       139.613          46.000    21592566.422 8  84733864.895 8
       133.797          49.000  
 24 12 03 02 27 10.0000000  0  7G10G21G23G25G28G31G32
  20524452.070 8 107856720.441 8      -781.227          50.000    20524454.750 7
  84044211.488 7      -608.703          47.000    20524452.102 8  80542354.695 8
      -583.348          51.000  
  24380480.648 6 128120283.316 6      -103.934          41.000    24380484.180 6
  99833998.758 6       -80.992          36.000                                  
                                
  22856542.336 7 120111931.652 7     -3106.980          43.000    22856550.555 6
  93593738.086 6     -2421.027          40.000    22856553.875 7  89694025.281 7
     -2320.109          46.000  
  21635446.047 7 113695038.324 7       -70.434          44.000    21635452.141 7
  88593567.180 7       -54.941          43.000    21635451.102 8  84902155.539 8
       -52.633          48.000  
  20745537.719 7 109018537.672 7       399.543          47.000    20745539.547 7
  84949514.410 7       311.348          45.000    20745541.313 8  81409959.230 8
       298.387          51.000  
  21870864.945 7 114932172.715 7      2341.688          45.000    21870866.211 7
  89557544.180 7      1824.695          44.000                                  
                                
  21592396.078 8 113468806.258 8       178.168          49.000    21592399.352 7
  88417260.230 7       138.879          46.000    21592396.445 8  84733197.797 8
       133.031          49.000  
 24 12 03 02 27 15.0000000  0  7G10G21G23G25G28G31G32
